Log_Date,Log_Time,Time,Depth,Ax,Ay,Az,pitch,roll,yaw,velocity,distance
10.05.2026,17:18:50,33264,0,0,0,0,0,0,0,0,0
10.05.2026,17:18:50,33318,0,0,0,0,0,0,0,0,0
10.05.2026,17:18:50,33372,0,0,0,0,0,0,0,0,0
10.05.2026,17:18:50,33426,0,0,0,0,0,0,0,0,0
10.05.2026,17:18:50,33480,0,0,0,0,0,0,0,0,0
10.05.2026,17:18:50,33534,0,0,0,0,0,0,0,0,0
10.05.2026,17:18:50,33750,0,0,0,0,0,0,0,0,0
10.05.2026,17:18:50,33804,0,0,0,0,0,0,0,0,0
10.05.2026,17:18:50,33858,0,0,0,0,0,0,0,0,0
10.05.2026,17:18:50,33912,0,0,0,0,0,0,0,0,0
10.05.2026,17:18:50,33966,0,0,0,0,0,0,0,0,0
10.05.2026,17:18:50,34020,0,0,0,0,0,0,0,0,0
10.05.2026,17:18:50,34074,0,0,0,0,0,0,0,0,0
10.05.2026,17:18:50,34128,0,0,0,0,0,0,0,0,0
10.05.2026,17:18:50,34182,0,0,0,0,0,0,0,0,0
10.05.2026,17:18:50,34236,0,0,0,0,0,0,0,0,0
10.05.2026,17:18:50,34290,0,0,0,0,0,0,90,0,0
10.05.2026,17:18:50,34344,0,1.58,-0.31,-0.47,0,0,90,0,0
10.05.2026,17:18:50,34398,0,-0.04,0,-0.32,0,0,90,0,0
10.05.2026,17:18:50,34452,0,-0.04,0.01,-0.34,1.9375,9.625,90,0,0
10.05.2026,17:18:50,34506,0,-0.05,0,-0.3,1.9375,9.625,90,0,0
10.05.2026,17:18:50,34560,0,-0.06,0,-0.33,1.9375,9.625,90,0,0
10.05.2026,17:18:50,34614,0,-0.08,0.02,-0.31,1.9375,9.625,90,0,0
10.05.2026,17:18:50,34668,0,-0.03,0,-0.29,1.9375,9.625,90,0,0
10.05.2026,17:18:50,34722,0,-0.06,0,-0.32,1.9375,9.625,90.0625,0,0
10.05.2026,17:18:50,34776,0,-0.04,0.01,-0.33,1.9375,9.625,90.0625,0,0
10.05.2026,17:18:50,34830,0,-0.04,0,-0.31,1.9375,9.625,90.0625,0,0
10.05.2026,17:18:50,34884,0,-0.07,0,-0.3,1.9375,9.625,90.0625,0,0
10.05.2026,17:18:50,34938,0,-0.1,0,-0.31,1.9375,9.625,96.5625,0,0
10.05.2026,17:18:50,34992,0,-0.04,0,-0.37,1.9375,9.625,96.5625,0,0
10.05.2026,17:18:50,35046,0,-0.09,0,-0.35,1.9375,9.625,96.625,0,0
10.05.2026,17:18:50,35100,0,-0.07,0.01,-0.31,1.9375,9.625,96.625,0,0
10.05.2026,17:18:50,35154,0,-0.08,0,-0.3,1.9375,9.625,96.5,0,0
10.05.2026,17:18:50,35208,0,-0.07,0.01,-0.32,1.9375,9.625,96.4375,0,0
10.05.2026,17:18:50,35262,0,-0.05,0,-0.3,1.9375,9.625,96.4375,0,0
10.05.2026,17:18:50,35316,0,-0.05,0,-0.32,1.9375,9.625,96.4375,0,0
10.05.2026,17:18:50,35370,0,-0.06,0,-0.32,1.9375,9.625,96.3125,0,0
10.05.2026,17:18:50,35424,0,-0.06,0,-0.36,1.9375,9.625,96.3125,0,0
10.05.2026,17:18:50,35478,0,-0.05,0.01,-0.33,1.9375,9.625,96.3125,0,0
10.05.2026,17:18:50,35532,0,-0.05,0,-0.28,1.9375,9.625,96.4375,0,0
10.05.2026,17:18:50,35586,0,-0.05,0.01,-0.27,1.9375,9.625,96.5,0,0
10.05.2026,17:18:50,35640,0,-0.06,0,-0.26,1.9375,9.625,96.4375,0,0
10.05.2026,17:18:50,35694,0,-0.07,0,-0.27,1.9375,9.625,96.4375,0,0
10.05.2026,17:18:50,35748,0,-0.06,0,-0.27,1.9375,9.625,96.375,0,0
10.05.2026,17:18:50,35802,0,-0.06,0.02,-0.24,1.9375,9.625,96.4375,0,0
10.05.2026,17:18:50,35856,0,-0.05,0,-0.29,1.9375,9.625,96.4375,0,0
10.05.2026,17:18:50,35910,0,-0.04,-0.02,-0.26,1.9375,9.625,96.4375,0,0
10.05.2026,17:18:50,35964,0,-0.04,0.02,-0.26,1.9375,9.625,90,0,0
10.05.2026,17:18:50,36018,0,-0.05,0.01,-0.26,1.9375,9.625,89.9375,0,0
10.05.2026,17:18:50,36072,0,-0.02,-0.02,-0.29,1.9375,9.625,89.9375,0,0
10.05.2026,17:18:50,36126,0,-0.21,0.13,-0.23,1.9375,9.625,90,0,0
10.05.2026,17:18:50,36180,0,0.06,-0.03,-0.34,1.9375,9.625,90,0,0
10.05.2026,17:18:50,36234,0,-0.14,0.09,-0.23,1.9375,9.625,90,0,0
10.05.2026,17:18:50,36288,0,0.01,0,-0.26,1.9375,9.625,89.9375,0,0
10.05.2026,17:18:50,36342,0,-0.14,0.01,-0.29,1.9375,9.625,89.9375,0,0
10.05.2026,17:18:50,36396,0,0,0.03,-0.24,1.9375,9.625,90,0,0
10.05.2026,17:18:50,36450,0,-0.11,0.01,-0.27,1.9375,9.625,90,0,0
10.05.2026,17:18:50,36504,0,0,0.04,-0.26,1.9375,9.625,89.9375,0,0
10.05.2026,17:18:50,36558,0,-0.05,0.03,-0.27,1.9375,9.625,89.9375,0,0
10.05.2026,17:18:50,36612,0,-0.01,0.04,-0.23,1.9375,9.625,89.9375,0,0
10.05.2026,17:18:50,36666,0,-0.06,0.01,-0.22,1.9375,9.625,89.9375,0,0
10.05.2026,17:18:50,36720,0,-0.07,0.03,-0.25,1.9375,9.625,89.9375,0,0
10.05.2026,17:18:50,36774,0,-0.07,0.03,-0.25,1.9375,9.6875,89.9375,0,0
10.05.2026,17:18:50,36828,0,-0.06,0,-0.29,1.9375,9.6875,89.9375,0,0
10.05.2026,17:18:50,36882,0,-0.04,-0.03,-0.23,1.9375,9.6875,89.9375,0,0
10.05.2026,17:18:50,36936,0,0,0.02,-0.26,1.9375,9.6875,89.9375,0,0
10.05.2026,17:18:50,36990,0,-0.13,0.06,-0.26,1.9375,9.6875,89.9375,0,0
10.05.2026,17:18:50,37044,0,-0.01,-0.02,-0.26,1.9375,9.6875,89.9375,0,0
10.05.2026,17:18:50,37098,0,-0.12,0,-0.35,1.9375,9.6875,89.9375,0,0
10.05.2026,17:18:50,37152,0,0,0.05,-0.26,1.8125,9.6875,89.9375,0,0
10.05.2026,17:18:50,37206,0,-0.08,-0.03,-0.33,1.8125,9.75,89.9375,0,0
10.05.2026,17:18:50,37260,0,0.27,0.18,-0.23,1.9375,9.6875,90.0625,0,0
10.05.2026,17:18:50,37314,0,-0.05,-0.12,-0.12,2.25,9.5,91.1875,0,0
10.05.2026,17:18:50,37368,0,0.04,0.09,-0.24,2.5625,9.3125,91.5625,0,0
10.05.2026,17:18:50,37422,0,0.2,-0.04,-1.04,3.375,9.25,92.5625,0,0
10.05.2026,17:18:50,37476,0,0.35,0,-0.24,3.9375,9.125,93.3125,0,0
10.05.2026,17:18:50,37530,0,-0.01,0.05,-0.06,5.0625,9,95,0,0
10.05.2026,17:18:50,37584,0,0.24,0.26,-0.4,6.5,8.75,96.9375,0,0
10.05.2026,17:18:50,37638,0,-0.01,0.32,-0.18,7.0625,8.6875,98.0625,0,0
10.05.2026,17:18:50,37692,0,-0.07,0.23,-0.42,8.1875,8.6875,100.0625,0,0
10.05.2026,17:18:50,37746,0,-0.38,0.49,-0.38,9.0625,8.4375,102.5,0,0
10.05.2026,17:18:50,37800,0,-0.3,0.32,-0.15,9.3125,8.4375,103.5,0,0
10.05.2026,17:18:50,37854,0,-0.07,0.36,-0.3,9.875,8.125,105.9375,0,0
10.05.2026,17:18:50,37908,0,0.01,0.37,-0.34,10.25,8,107.875,0,0
10.05.2026,17:18:50,37962,0,-0.03,0.54,-0.22,10.3125,7.9375,109.125,0,0
10.05.2026,17:18:50,38016,0,-0.25,0.45,-0.13,10.4375,7.8125,111.3125,0,0
10.05.2026,17:18:50,38070,0,-0.34,0.54,-0.17,10.625,7.6875,112.375,0,0
10.05.2026,17:18:50,38124,0,-0.09,0.44,-0.22,10.875,7.25,114.375,0,0
10.05.2026,17:18:50,38178,0,-0.14,0.43,-0.24,11.0625,7.125,115.875,0,0
10.05.2026,17:18:50,38232,0,-0.02,0.47,-0.19,11.0625,7.0625,116.6875,0,0
10.05.2026,17:18:50,38286,0,0.04,0.29,-0.18,11.1875,6.9375,117.8125,0,0
10.05.2026,17:18:50,38340,0,-0.31,0.5,-0.29,11.3125,7,117.9375,0,0
10.05.2026,17:18:50,38394,0,-0.31,0.31,-0.33,11.375,6.9375,117.125,0,0
10.05.2026,17:18:50,38448,0,-0.08,0.52,-0.33,11.125,6.75,116.375,0,0
10.05.2026,17:18:50,38502,0,-0.13,0.34,-0.1,10.8125,6.875,114.6875,0,0
10.05.2026,17:18:50,38556,0,-0.21,0.37,-0.18,10.75,7,113.3125,0,0
10.05.2026,17:18:50,38610,0,0.05,0,-0.13,10.625,7.1875,110.625,0,0
10.05.2026,17:18:50,38664,0,-0.07,0.3,-0.19,10.625,7.375,109,0,0
10.05.2026,17:18:50,38718,0,-0.03,-0.43,-0.14,10.5625,8.0625,105.5,0,0
10.05.2026,17:18:50,38772,0,0,0.85,-0.39,10.5,8.75,102.0625,0,0
10.05.2026,17:18:50,38826,0,-0.03,0.18,-0.08,10.3125,9.25,99.9375,0,0
10.05.2026,17:18:50,38880,0,0.43,0.17,-0.19,9.9375,10.25,95.5625,0,0
10.05.2026,17:18:50,38934,0,0.19,0.03,-0.21,9.625,10.875,92,0,0
10.05.2026,17:18:50,38988,0,0.05,-0.01,-0.11,9.375,11.125,90.3125,0,0
10.05.2026,17:18:50,39042,0,-0.62,0.14,-0.64,8.625,10.75,87.875,0,0
10.05.2026,17:18:50,39096,0,0.1,0,-0.22,7.25,9.4375,86.375,0,0
10.05.2026,17:18:50,39150,0,0.43,-0.23,-0.05,6.75,9.0625,85.5625,0,0
10.05.2026,17:18:50,39204,0,0.12,-0.1,-0.33,5.8125,9.0625,83.3125,0,0
10.05.2026,17:18:50,39258,0,0.05,-0.11,-0.31,5.375,9.3125,82.25,0,0
10.05.2026,17:18:50,39312,0,0.05,-0.14,-0.6,4.5625,9.625,80,0,0
10.05.2026,17:18:50,39366,0,0.23,-0.32,-0.38,3.1875,9.0625,77.125,0,0
10.05.2026,17:18:50,39420,0,0.11,-0.31,-0.26,2.4375,8.75,76,0,0
10.05.2026,17:18:50,39474,0,0.95,-0.2,-0.39,0.9375,8.1875,73.4375,0,0
10.05.2026,17:18:50,39528,0,0.15,-0.44,-0.59,0,8.3125,71.6875,0,0
10.05.2026,17:18:50,39582,0,0.54,-0.11,-0.39,-0.125,8.125,70.625,0,0
10.05.2026,17:18:50,39636,0,0.12,-0.57,-0.21,0,8.3125,70,0,0
10.05.2026,17:18:50,39690,0,0.14,-0.83,-0.2,0.1875,8.125,69.75,0,0
10.05.2026,17:18:50,39744,0,0.11,-0.39,-0.37,0.125,8,69.5,0,0
10.05.2026,17:18:50,39798,0,0.05,-0.46,-0.09,0.25,8.125,69.25,0,0
10.05.2026,17:18:50,39852,0,0.09,-0.35,-0.22,0.3125,8.1875,69.125,0,0
10.05.2026,17:18:50,39906,0,0.12,-0.37,-0.26,0.4375,8.25,69,0,0
10.05.2026,17:18:50,39960,0,0.04,-0.29,-0.21,0.5,8.3125,69.0625,0,0
10.05.2026,17:18:50,40014,0,0.14,-0.31,-0.33,0.5625,8.3125,69.0625,0,0
10.05.2026,17:18:50,40068,0,0.2,-0.21,-0.07,0.8125,8.375,69.125,0,0
10.05.2026,17:18:50,40122,0,0.14,-0.22,0.02,1.625,8.625,69.6875,0,0
10.05.2026,17:18:50,40176,0,0.14,-0.19,-0.18,2.0625,8.6875,70.125,0,0
10.05.2026,17:18:50,40230,0,-0.05,-0.99,-0.13,3.4375,9.0625,71.1875,0,0
10.05.2026,17:18:50,40284,0,0.12,-0.2,-0.08,4.8125,9.75,72.75,0,0
10.05.2026,17:18:50,40338,0,0.21,-0.26,0.01,5.6875,9.875,74.125,0,0
10.05.2026,17:18:50,40392,0,0.1,-0.14,-0.04,8.25,10.3125,75.5,0,0
10.05.2026,17:18:50,40446,0,-0.08,-0.09,-0.24,9.5625,10.625,76.6875,0,0
10.05.2026,17:18:50,40500,0,-0.05,-0.21,-0.39,12.4375,11.25,77.8125,0,0
10.05.2026,17:18:50,40554,0,-0.04,-0.2,-0.26,14.5625,11.1875,78.5,0,0
10.05.2026,17:18:50,40608,0,-0.05,-0.15,-0.17,15.8125,11.3125,78.625,0,0
10.05.2026,17:18:50,40662,0,0.13,-0.15,-0.23,17.6875,11.625,78.75,0,0
10.05.2026,17:18:50,40716,0,-0.07,-0.17,-0.19,19.875,12.0625,78.75,0,0
10.05.2026,17:18:50,40770,0,-0.03,-0.13,-0.17,20.8125,12.3125,78.75,0,0
10.05.2026,17:18:50,40824,0,-0.17,-0.15,-0.24,22.6875,12.75,78.75,0,0
10.05.2026,17:18:50,40878,0,-0.2,-0.09,-0.14,24.5,13.25,78.625,0,0
10.05.2026,17:18:50,40932,0,0.09,-0.08,-0.35,25.1875,13.375,78.5625,0,0
10.05.2026,17:18:50,40986,0,0.02,-0.03,-0.37,26.625,13.25,78.3125,0,0
10.05.2026,17:18:50,41040,0,-0.01,-0.36,0.13,27.1875,13,78.1875,0,0
10.05.2026,17:18:50,41094,0,-0.04,-0.18,-0.25,28.25,12.9375,78.1875,0,0
10.05.2026,17:18:50,41148,0,0.05,-0.17,-0.36,29.125,12.8125,78.25,0,0
10.05.2026,17:18:50,41202,0,0.04,-0.01,-0.44,29.4375,12.75,78.3125,0,0
10.05.2026,17:18:50,41256,0,0.08,-0.09,-0.42,29.8125,12.875,78.5,0,0
10.05.2026,17:18:50,41310,0,0,-0.2,-0.37,29.625,13,78.75,0,0
10.05.2026,17:18:50,41364,0,0.09,0.06,-0.42,29.1875,13.0625,78.9375,0,0
10.05.2026,17:18:50,41418,0,-0.18,0.02,-0.19,28.1875,12.875,79.75,0,0
10.05.2026,17:18:50,41472,0,-0.1,0.2,-0.34,26.6875,12.5625,80.375,0,0
10.05.2026,17:18:50,41526,0,-0.04,0.29,-0.39,25.75,12.3125,80.75,0,0
10.05.2026,17:18:50,41580,0,0.14,-0.05,-0.49,23.25,11.75,80.5625,0,0
10.05.2026,17:18:50,41634,0,-0.17,-0.34,0.08,21.5625,11.6875,80.75,0,0
10.05.2026,17:18:50,41688,0,0.12,-0.09,0.22,19.1875,11.625,80.625,0,0
10.05.2026,17:18:50,41742,0,0.32,-0.22,0.07,16.625,11.3125,80.8125,0,0
10.05.2026,17:18:50,41796,0,0.08,-0.18,0.02,15.75,11.3125,80.8125,0,0
10.05.2026,17:18:50,41850,0,0.19,0.02,0.06,13.625,10.875,80.75,0,0
10.05.2026,17:18:50,41904,0,0.08,-0.37,0.02,11.125,10.25,80.875,0,0
10.05.2026,17:18:50,41958,0,-0.04,0.16,-0.41,10.125,10.125,81,0,0
10.05.2026,17:18:50,42012,0,0.26,-0.05,-0.25,7.625,9.9375,81.5,0,0
10.05.2026,17:18:50,42066,0,0.11,-0.01,0.17,5.375,9.625,82,0,0
10.05.2026,17:18:50,42120,0,0.1,0,0.22,3.9375,9.4375,82.375,0,0
10.05.2026,17:18:50,42174,0,0.42,-0.03,0.44,2.25,8.5625,82.875,0,0
10.05.2026,17:18:50,42228,0,0.46,-0.24,0.09,1.75,7.9375,83.1875,0,0
10.05.2026,17:18:50,42282,0,-0.07,0.06,-0.51,0.625,7.875,84.3125,0,0
10.05.2026,17:18:50,42336,0,0.14,-0.1,-0.39,-0.3125,7.9375,85.25,0,0
10.05.2026,17:18:50,42390,0,0.21,0.06,-0.44,-0.75,7.875,85.8125,0,0
10.05.2026,17:18:50,42444,0,-0.05,-0.01,-0.17,-1.25,7.8125,86.4375,0,0
10.05.2026,17:18:50,42498,0,0.27,0.1,-0.39,-2.8125,7.75,87.1875,0,0
10.05.2026,17:18:50,42552,0,-0.02,0.29,-0.74,-3.5625,7.8125,87.5,0,0
10.05.2026,17:18:50,42606,0,0.2,-0.1,-0.38,-4.5,7.9375,88.0625,0,0
10.05.2026,17:18:50,42660,0,0.16,0.17,-0.32,-5.25,7.875,88.375,0,0
10.05.2026,17:18:50,42714,0,0.27,-0.11,-0.29,-5.5625,7.75,89,0,0
10.05.2026,17:18:50,42768,0,0.11,0.05,-0.26,-6.8125,7.5625,89.4375,0,0
10.05.2026,17:18:50,42822,0,0.29,0.19,-0.28,-7.4375,7.5625,89.6875,0,0
10.05.2026,17:18:50,42876,0,0.47,0.08,-0.85,-8.75,7.5625,90.5,0,0
10.05.2026,17:18:50,42930,0,-0.03,0.2,-0.06,-9.5625,7.0625,90.75,0,0
10.05.2026,17:18:50,42984,0,-0.02,0.29,-0.49,-10.25,6.9375,91.125,0,0
10.05.2026,17:18:50,43038,0,0.35,-0.12,-0.34,-12.25,6.75,93.1875,0,0
10.05.2026,17:18:50,43092,0,0.28,-0.2,-0.5,-14.25,6.625,94.4375,0,0
10.05.2026,17:18:50,43146,0,0.16,-0.04,-0.48,-15.4375,6.625,95.375,0,0
10.05.2026,17:18:50,43200,0,0.42,0.24,-0.52,-17,6.5625,96.5,0,0
10.05.2026,17:18:50,43254,0,0.47,0.6,-0.94,-18.625,6.3125,97.9375,0,0
10.05.2026,17:18:50,43308,0,0.19,0.07,-0.41,-19,6.25,98.5625,0,0
10.05.2026,17:18:50,43362,0,0.46,0.28,-0.64,-19.75,6.3125,99.0625,0,0
10.05.2026,17:18:50,43416,0,0.31,-0.35,-0.66,-19.8125,6.375,99.4375,0,0
10.05.2026,17:18:50,43470,0,0.05,0.07,-0.65,-19.6875,6.375,99.5625,0,0
10.05.2026,17:18:50,43524,0,-0.17,-0.57,-0.57,-18.875,6.75,99.4375,0,0
10.05.2026,17:18:50,43578,0,0.04,0.06,-0.05,-17.6875,6.75,99.125,0,0
10.05.2026,17:18:50,43632,0,0.15,0.69,-0.03,-13.5625,7.5,97.8125,0,0
10.05.2026,17:18:50,43686,0,0.18,0.13,-0.37,-9.5,8.5625,96.6875,0,0
10.05.2026,17:18:50,43740,0,0.02,0.25,-0.36,-6.875,9.4375,95.875,0,0
10.05.2026,17:18:50,43794,0,-0.02,0.23,-0.53,-3.1875,10.5,95.125,0,0
10.05.2026,17:18:50,43848,0,0.86,0.27,0.29,1.5,10.375,94.3125,0,0
10.05.2026,17:18:50,43902,0,0.6,-0.02,0.52,3.625,10.8125,94.1875,0,0
10.05.2026,17:18:50,43956,0,-0.18,-0.26,0.28,7.0625,12.1875,93.25,0,0
10.05.2026,17:18:50,44010,0,-0.25,0.12,-0.49,8.75,13.125,92.625,0,0
10.05.2026,17:18:50,44064,0,0.28,-0.06,-0.27,11.25,13.8125,92.0625,0,0
10.05.2026,17:18:50,44118,0,0.67,-0.57,0.4,14.5625,13.625,91.6875,0,0
10.05.2026,17:18:50,44172,0,0.33,-0.24,-0.15,16.0625,13.8125,91.4375,0,0
10.05.2026,17:18:50,44226,0,0.16,0.2,-0.35,19.1875,14.4375,90.6875,0,0
10.05.2026,17:18:50,44280,0,0.31,0.21,-0.4,22.3125,15.0625,90.0625,0,0
10.05.2026,17:18:50,44334,0,0.22,-0.21,-0.35,23.75,15.3125,90.0625,0,0
10.05.2026,17:18:50,44388,0,0.36,0.02,-0.27,27.25,16,89.6875,0,0
10.05.2026,17:18:50,44442,0,0.03,0.18,-0.76,29,15.75,89.4375,0,0
10.05.2026,17:18:50,44496,0,0.45,-0.35,0.01,29.9375,15.0625,89.3125,0,0
10.05.2026,17:18:50,44550,0,0.39,-0.67,0.16,31.1875,14.4375,89.625,0,0
10.05.2026,17:18:50,44604,0,0.16,0.12,-0.56,31.1875,14.5,89.6875,0,0
10.05.2026,17:18:50,44658,0,0.37,0.1,-0.27,30.4375,14.6875,89.9375,0,0
10.05.2026,17:18:50,44712,0,0.39,-0.08,-0.62,28.875,15,90.5625,0,0
10.05.2026,17:18:50,44766,0,0.59,0.44,-0.57,27.5,15.3125,91,0,0
10.05.2026,17:18:50,44820,0,0.36,-0.01,-0.19,25.3125,15.5,92.3125,0,0
10.05.2026,17:18:50,44874,0,0.02,0.45,-0.65,22.1875,16.125,93.625,0,0
10.05.2026,17:18:50,44928,0,0.2,-0.05,0.3,21.1875,16.3125,94.1875,0,0
10.05.2026,17:18:50,44982,0,0.05,-0.3,0.38,18.5,16.6875,95,0,0
10.05.2026,17:18:50,45036,0,0.23,0.28,-0.16,16.5625,16.75,95.4375,0,0
10.05.2026,17:18:50,45090,0,0.48,-0.14,0.05,15.625,16.75,95.625,0,0
10.05.2026,17:18:50,45144,0,0.31,0.13,-0.22,13.1875,17.125,95.875,0,0
10.05.2026,17:18:50,45198,0,0.17,-0.34,-0.39,12.3125,17.25,95.9375,0,0
10.05.2026,17:18:50,45252,0,-0.33,0.09,0.45,11.3125,16.75,95.6875,0,0
10.05.2026,17:18:50,45306,0,0.48,0.32,-0.76,10.5625,16.1875,95.625,0,0
10.05.2026,17:18:50,45360,0,0.37,0.01,-0.41,10.25,16.125,95.4375,0,0
10.05.2026,17:18:50,45414,0,-0.09,-0.28,-0.12,9.1875,16.875,94.25,0,0
10.05.2026,17:18:50,45468,0,-0.08,0.08,-0.18,8.375,17.0625,93.4375,0,0
10.05.2026,17:18:50,45522,0,-0.02,-0.31,-0.06,7.875,16.5625,92.9375,0,0
10.05.2026,17:18:50,45576,0,-1.57,0.21,3.98,6.9375,15.1875,92.125,0,0
10.05.2026,17:18:50,45630,0,0.11,-0.25,-0.83,3.75,13.625,92.125,0,0
10.05.2026,17:18:50,45684,0,0.48,-0.71,-0.72,3.0625,12.375,92.1875,0,0
10.05.2026,17:18:50,45738,0,-0.34,0.75,-2.14,1.6875,10,93,0,0
10.05.2026,17:18:50,45792,0,0.31,0.08,-0.81,1.3125,9.9375,93.3125,0,0
10.05.2026,17:18:50,45846,0,0.19,-0.02,-0.59,1.5,9.8125,93.25,0,0
10.05.2026,17:18:50,45900,0,0.03,-0.04,-0.26,1.5,9.8125,93.25,0,0
10.05.2026,17:18:50,45954,0,0,-0.04,-0.25,1.5,9.8125,93.25,0,0
10.05.2026,17:18:50,46008,0,0,0.03,0.14,1.4375,9.8125,93.1875,0,0
10.05.2026,17:18:50,46062,0,0.05,-0.04,-0.32,1.5,9.8125,93.0625,0,0
10.05.2026,17:18:50,46116,0,0.06,-0.2,-0.55,1.4375,9.75,93.0625,0,0
10.05.2026,17:18:50,46170,0,-1.38,-1.69,-0.15,1.3125,9.5625,92.875,0,0
10.05.2026,17:18:50,46224,0,1.91,0.8,-0.61,1.0625,9.5,91.875,0,0
10.05.2026,17:18:50,46278,0,2.31,-0.06,-0.1,1.1875,9.25,92.625,0,0
10.05.2026,17:18:50,46332,0,-2.83,-2.08,-0.36,1.125,9.3125,92.8125,0,0
10.05.2026,17:18:50,46386,0,1.21,0.3,-0.17,1.0625,9.25,92.125,0,0
10.05.2026,17:18:50,46440,0,6.21,3.03,-0.19,1.125,9.0625,92.8125,0,0
10.05.2026,17:18:50,46494,0,-0.26,0.89,0.25,1.375,9.3125,94.5,0,0
10.05.2026,17:18:50,46548,0,-5.56,-3.72,-0.87,1.1875,9.3125,93.0625,0,0
10.05.2026,17:18:50,46602,0,1.08,0.77,-0.44,0.8125,9,89.6875,0,0
10.05.2026,17:18:50,46656,0,-4.3,-3.47,0.09,1,9.3125,91.375,0,0
10.05.2026,17:18:50,46710,0,-1.37,0.57,0,0.9375,9.5625,90.75,0,0
10.05.2026,17:18:50,46764,0,10.89,4.77,-0.27,0.4375,9,86.5625,0,0
10.05.2026,17:18:50,46818,0,3.44,1.87,-0.3,0.6875,9.0625,88.875,0,0
10.05.2026,17:18:50,46872,0,-4.73,-3.34,-0.71,0.875,9.5,90,0,0
10.05.2026,17:18:50,46926,0,6.6,3.86,-0.56,0.4375,8.9375,87.125,0,0
10.05.2026,17:18:50,46980,0,7.26,2.53,-0.37,0.5625,9,87.875,0,0
10.05.2026,17:18:50,47034,0,-12.4,-5.84,1.47,1.0625,9.6875,92.5,0,0
10.05.2026,17:18:50,47088,0,4.81,2.16,-0.21,0.8125,9.5,90.3125,0,0
10.05.2026,17:18:50,47142,0,-0.45,-1.62,-0.81,0.75,9.4375,90,0,0
10.05.2026,17:18:50,47196,0,-7.36,-4.82,0.7,1,9.5625,91.5625,0,0
10.05.2026,17:18:50,47250,0,11.33,4.56,-0.14,0.4375,9.375,87.4375,0,0
10.05.2026,17:18:50,47304,0,5.47,1.67,-0.71,0.5625,9.3125,88.75,0,0
10.05.2026,17:18:50,47358,0,-4.51,-2.03,-0.24,1.0625,9.5,92.6875,0,0
10.05.2026,17:18:50,47412,0,10.44,5.56,-0.23,0.5,9.1875,88.625,0,0
10.05.2026,17:18:50,47466,0,4.63,1.54,-0.86,0.5625,9.25,89.5625,0,0
10.05.2026,17:18:50,47520,0,-11.76,-6.53,0.68,1.1875,9.5,94.25,0,0
10.05.2026,17:18:50,47574,0,-7.3,-3.52,-0.05,1.0625,9.4375,92.9375,0,0
10.05.2026,17:18:50,47628,0,6.12,2.9,-1.64,0.4375,9.0625,89.3125,0,0
10.05.2026,17:18:50,47682,0,-7.99,-5.44,-0.86,1.0625,9.3125,93.9375,0,0
10.05.2026,17:18:50,47736,0,-2.27,-0.4,0.95,0.875,9.125,92.3125,0,0
10.05.2026,17:18:50,47790,0,1.87,0.22,-0.36,0.5,8.875,90.1875,0,0
10.05.2026,17:18:50,47844,0,-1,-1.78,-0.29,0.75,9.375,91.6875,0,0
10.05.2026,17:18:50,47898,0,-4.03,-3.13,-0.66,0.75,9.625,91.375,0,0
10.05.2026,17:18:50,47952,0,-0.34,-3.72,-0.96,0.625,9.625,91.1875,0,0
10.05.2026,17:18:50,48006,0,0.62,4.1,-0.35,0.6875,9.4375,91.8125,0,0
10.05.2026,17:18:50,48060,0,1.02,0.82,-0.29,0.75,9.0625,92.125,0,0
10.05.2026,17:18:50,48114,0,-0.43,0.1,-0.41,0.5625,9.0625,90.1875,0,0
10.05.2026,17:18:50,48168,0,0.04,-1.84,-0.09,0.5,9.4375,89.3125,0,0
10.05.2026,17:18:50,48222,0,0.5,-2.58,-0.21,0.5,9.5625,90.125,0,0
10.05.2026,17:18:50,48276,0,-0.38,2.6,-0.2,0.625,9.375,91.4375,0,0
10.05.2026,17:18:50,48330,0,0.8,0.79,-0.15,0.6875,9.25,91.5625,0,0
10.05.2026,17:18:50,48384,0,-0.47,-0.39,0,0.4375,9.5625,89.5625,0,0
10.05.2026,17:18:50,48438,0,0.13,-0.97,0.16,0.4375,9.5625,89.9375,0,0
10.05.2026,17:18:50,48492,0,-0.02,-3.03,-0.45,0.25,9.75,90.25,0,0
10.05.2026,17:18:50,48546,0,-0.34,3.47,-0.19,0.5,9.375,90.75,0,0
10.05.2026,17:18:50,48600,0,-0.51,0.98,-0.48,0.5625,9.375,90.5,0,0
10.05.2026,17:18:50,48654,0,0.57,-0.75,-0.48,0.4375,9.4375,89.5,0,0
10.05.2026,17:18:50,48708,0,-0.38,-2.2,-0.12,0.375,9.4375,89.375,0,0
10.05.2026,17:18:50,48762,0,0.58,-2.31,-0.32,0.375,9.375,89.8125,0,0
10.05.2026,17:18:50,48816,0,-0.86,0.73,0.03,0.5625,9.0625,91.25,0,0
10.05.2026,17:18:50,48870,0,-0.32,2.08,-0.66,0.4375,9,89.6875,0,0
10.05.2026,17:18:50,48924,0,-0.11,-0.52,-0.05,0.25,9.375,87.75,0,0
10.05.2026,17:18:50,48978,0,0.82,-3.54,-0.1,0.25,9.4375,88,0,0
10.05.2026,17:18:50,49032,0,0.79,3.76,-0.34,0.3125,9.375,88.75,0,0
10.05.2026,17:18:50,49086,0,-0.73,3.08,-0.02,0.375,9.375,89.1875,0,0
10.05.2026,17:18:50,49140,0,-0.07,0.76,-0.46,0.3125,9.375,88.625,0,0
10.05.2026,17:18:50,49194,0,0.1,-0.22,-0.31,0.25,9.375,88.125,0,0
10.05.2026,17:18:50,49248,0,0.87,-2.43,-0.4,0.3125,9.375,88.6875,0,0
10.05.2026,17:18:50,49302,0,-0.25,2.94,-0.16,0.5,9.25,90.6875,0,0
10.05.2026,17:18:50,49356,0,0.5,0.55,-0.4,0.5,9.125,90.5,0,0
10.05.2026,17:18:50,49410,0,-0.08,1.36,-0.77,0.3125,9.375,88.4375,0,0
10.05.2026,17:18:50,49464,0,-0.6,-3.99,-0.17,0.4375,9.25,88.8125,0,0
10.05.2026,17:18:50,49518,0,0.97,-2.64,-0.25,0.375,9.1875,88.9375,0,0
10.05.2026,17:18:50,49572,0,-0.3,2.97,-0.58,0.5,9.0625,89.75,0,0
10.05.2026,17:18:50,49626,0,-0.06,1.36,-0.74,0.4375,9.1875,88.5,0,0
10.05.2026,17:18:50,49680,0,-0.39,-0.75,-0.07,0.375,9.3125,88,0,0
10.05.2026,17:18:50,49734,0,0.19,-0.13,-0.18,0.375,9.3125,88.3125,0,0
10.05.2026,17:18:50,49788,0,0.27,-0.25,-0.28,0.25,9.3125,88.4375,0,0
10.05.2026,17:18:50,49842,0,0.13,0.48,-0.21,0.375,9.3125,88.3125,0,0
10.05.2026,17:18:50,49896,0,-0.32,-1.14,3.6,0.5,8.375,87.4375,0,0
10.05.2026,17:18:50,49950,0,-0.38,-1.02,3.59,0.8125,7.625,87.3125,0,0
10.05.2026,17:18:50,50004,0,1.43,0.57,-5.5,2.9375,7.125,88.5,0,0
10.05.2026,17:18:50,50058,0,0.69,1.83,-5.46,0.625,8,89.5625,0,0
10.05.2026,17:18:50,50112,0,-0.44,-0.57,3.03,-0.625,7.3125,90.375,0,0
10.05.2026,17:18:50,50166,0,-1.65,-0.2,6.4,0.3125,7.3125,91.1875,0,0
10.05.2026,17:18:50,50220,0,0.2,0.49,-3.83,2.75,9.1875,91,0,0
10.05.2026,17:18:50,50274,0,0,1.15,-9.07,3.125,10.6875,90.9375,0,0
10.05.2026,17:18:50,50328,0,0.22,0.88,0.6,0.0625,10.4375,91,0,0
10.05.2026,17:18:50,50382,0,0.06,-0.96,7.07,-0.75,8.75,92.125,0,0
10.05.2026,17:18:50,50436,0,0.97,0.34,1.64,0.125,9.4375,91.625,0,0
10.05.2026,17:18:50,50490,0,-0.92,1.71,-11.2,2.8125,11.625,91.4375,0,0
10.05.2026,17:18:50,50544,0,0,2.25,-7.24,1.0625,11.9375,91.5625,0,0
10.05.2026,17:18:50,50598,0,-2.77,-7.99,7.23,0.1875,8.9375,93.625,0,0
10.05.2026,17:18:50,50652,0,1.38,1.17,-0.38,2.5625,9.5,92.625,0,0
10.05.2026,17:18:50,50706,0,-1.1,1.57,-8.39,4.0625,11.5625,91.625,0,0
10.05.2026,17:18:50,50760,0,0.88,0.88,-0.37,0.9375,10.875,90.8125,0,0
10.05.2026,17:18:50,50814,0,-1.09,-3.29,9.22,1.0625,8.125,92.5625,0,0
10.05.2026,17:18:50,50868,0,0.74,-0.5,4.02,2.25,8.625,91.9375,0,0
10.05.2026,17:18:50,50922,0,-0.48,2.39,-11.59,3.9375,12.1875,89.875,0,0
10.05.2026,17:18:50,50976,0,0.3,-1.96,8.1,0.4375,9.375,90.875,0,0
10.05.2026,17:18:50,51030,0,-0.52,-3.35,9.02,0.75,7.875,92.3125,0,0
10.05.2026,17:18:50,51084,0,0.56,1.42,-0.77,4.625,9.9375,90.875,0,0
10.05.2026,17:18:50,51138,0,-1.95,1.15,-9.47,6.25,12.25,90.1875,0,0
10.05.2026,17:18:50,51192,0,1.01,0.88,3.65,2.625,10.5625,90.375,0,0
10.05.2026,17:18:50,51246,0,0.06,-1.75,6.25,2.5625,8.5625,92.6875,0,0
10.05.2026,17:18:50,51300,0,-0.36,2.08,-0.56,6.125,10.9375,91.0625,0,0
10.05.2026,17:18:50,51354,0,-0.54,2.77,-11.36,6,13.3125,89.5,0,0
10.05.2026,17:18:50,51408,0,0.63,-2.94,9.2,2.1875,9.25,91.4375,0,0
10.05.2026,17:18:50,51462,0,-0.4,-3.02,8.42,2.875,8.5,92.4375,0,0
10.05.2026,17:18:50,51516,0,-0.33,1.83,-7,5.75,11.5625,90.5625,0,0
10.05.2026,17:18:50,51570,0,0.25,2.53,-4.41,2.9375,13,89.625,0,0
10.05.2026,17:18:50,51624,0,1.54,-0.44,6.53,0.875,10.5,90.6875,0,0
10.05.2026,17:18:50,51678,0,-0.05,-1.1,5.14,2.625,8.875,92.6875,0,0
10.05.2026,17:18:50,51732,0,-0.18,0.99,-0.74,4.5625,11,91.375,0,0
10.05.2026,17:18:50,51786,0,-1.38,3.37,-10.78,5.8125,14.9375,90.25,0,0
10.05.2026,17:18:50,51840,0,0,-3.27,11.1,1.5,9.9375,92.1875,0,0
10.05.2026,17:18:50,51894,0,-0.53,-3.83,9.64,2.1875,8.3125,93.3125,0,0
10.05.2026,17:18:50,51948,0,1.1,2.74,-7.59,5.625,11.0625,89.75,0,0
10.05.2026,17:18:50,52002,0,0,0.56,1.8,1.8125,10.75,89.8125,0,0
10.05.2026,17:18:50,52056,0,-0.44,-4.19,10.48,1.625,8.375,91.25,0,0
10.05.2026,17:18:50,52110,0,1.14,0.7,-1.71,4.5625,9.25,90.8125,0,0
10.05.2026,17:18:50,52164,0,-0.89,3.11,-9.08,2.875,13,89,0,0
10.05.2026,17:18:50,52218,0,-0.02,-0.61,3.57,1.1875,11.125,89.9375,0,0
10.05.2026,17:18:50,52272,0,0.82,-1.19,5.86,3.25,8.1875,91.5625,0,0
10.05.2026,17:18:50,52326,0,2.13,2.5,-5.07,5.4375,10,90.125,0,0
10.05.2026,17:18:50,52380,0,-1.94,3.33,-9.71,3.0625,12.875,89.1875,0,0
10.05.2026,17:18:50,52434,0,0.11,-4.28,12.06,0.9375,7.75,91.75,0,0
10.05.2026,17:18:50,52488,0,0.33,-2.66,7.49,2.6875,7.6875,92.0625,0,0
10.05.2026,17:18:50,52542,0,-0.07,4.49,-13.95,5.0625,12.75,89.0625,0,0
10.05.2026,17:18:50,52596,0,-0.09,-1.32,4.23,0.5,10.8125,90.3125,0,0
10.05.2026,17:18:50,52650,0,-0.49,-4.49,11.89,0.8125,8.5625,91.75,0,0
10.05.2026,17:18:50,52704,0,1.14,1.9,-4.07,4.875,10.8125,90.3125,0,0
10.05.2026,17:18:50,52758,0,-1.09,1.63,-5.58,3.6875,13.9375,88.6875,0,0
10.05.2026,17:18:50,52812,0,-0.07,-2.22,6.75,1.0625,11.0625,90.1875,0,0
10.05.2026,17:18:50,52866,0,-0.04,-2.54,7.73,2.4375,8.75,91.6875,0,0
10.05.2026,17:18:50,52920,0,0.19,1.14,-1.09,4.125,10.375,90.6875,0,0
10.05.2026,17:18:50,52974,0,-1.13,3.27,-7.52,2.375,14.0625,88.25,0,0
10.05.2026,17:18:50,53028,0,-0.31,-4.37,10.58,-0.0625,8.9375,91,0,0
10.05.2026,17:18:50,53082,0,0.26,-3,6.82,1.5625,8.0625,91.6875,0,0
10.05.2026,17:18:50,53136,0,0.09,3.68,-13.08,4.25,12.4375,88.8125,0,0
10.05.2026,17:18:50,53190,0,-0.66,-3,7.45,-0.1875,11,89.75,0,0
10.05.2026,17:18:50,53244,0,-0.55,-4.58,10.98,0.625,9,91.25,0,0
10.05.2026,17:18:50,53298,0,2.12,3.01,-8.39,4.0625,10.8125,90,0,0
10.05.2026,17:18:50,53352,0,-0.92,0.71,-1.13,0,11,90.375,0,0
10.05.2026,17:18:50,53406,0,-1.91,-5.3,10.56,-0.4375,9.125,92.0625,0,0
10.05.2026,17:18:50,53460,0,1.65,1.6,-2.24,3.25,10.125,91.25,0,0
10.05.2026,17:18:50,53514,0,1.36,3.44,-11.89,3.6875,12.625,89.9375,0,0
10.05.2026,17:18:50,53568,0,-1.45,-4.01,7.57,-0.1875,10.9375,91.9375,0,0
10.05.2026,17:18:50,53622,0,0.71,-0.17,4.21,2.75,10.5,92.0625,0,0
10.05.2026,17:18:50,53676,0,1.24,2.89,-9.3,4.1875,12.5625,90.375,0,0
10.05.2026,17:18:50,53730,0,0.03,2.01,-3.89,0.625,13.375,90.4375,0,0
10.05.2026,17:18:50,53784,0,-1.57,-4.09,9.65,0.3125,10.375,93,0,0
10.05.2026,17:18:50,53838,0,0.97,1.52,1.05,3.25,12.0625,91.25,0,0
10.05.2026,17:18:50,53892,0,0.33,4.98,-9.93,3.125,16.0625,88.6875,0,0
10.05.2026,17:18:50,53946,0,-7.21,-8.39,10.36,-0.625,11.125,91.875,0,0
10.05.2026,17:18:50,54000,0,5.23,-2.09,3.97,0.5625,8.625,93,0,0
10.05.2026,17:18:50,54054,0,-3.79,1.47,-0.96,0.875,12.125,91.625,0,0
10.05.2026,17:18:50,54108,0,-1.95,0.55,-1.22,2.0625,12.75,89.0625,0,0
10.05.2026,17:18:50,54162,0,5.02,2.15,-4.66,1.875,12.125,87.0625,0,0
10.05.2026,17:18:50,54216,0,-1.55,-3.2,5.81,0.5,10.8125,89.0625,0,0
10.05.2026,17:18:50,54270,0,-6.65,-5.59,3.84,0.8125,11.5625,89.4375,0,0
10.05.2026,17:18:50,54324,0,2.08,3.32,-5.57,1.875,13.5625,84.6875,0,0
10.05.2026,17:18:50,54378,0,8.67,2.17,0.5,0.9375,11.125,85.125,0,0
10.05.2026,17:18:50,54432,0,1.69,-1.88,3.88,0.9375,10.375,87,0,0
10.05.2026,17:18:50,54486,0,-9.24,-3.19,0.32,0.9375,13.25,88.5625,0,0
10.05.2026,17:18:50,54540,0,6.09,3.55,-2.61,2.3125,12.5625,85.8125,0,0
10.05.2026,17:18:50,54594,0,9.77,1.78,-3.2,2.3125,10.25,86.25,0,0
10.05.2026,17:18:50,54648,0,-4.08,-3.34,3.7,1.375,9.25,89.5,0,0
10.05.2026,17:18:50,54702,0,-10,-5.58,3.77,1.5625,10.4375,89.75,0,0
10.05.2026,17:18:50,54756,0,1.78,3.61,-2.48,3.6875,8.875,87.5625,0,0
10.05.2026,17:18:50,54810,0,6.45,2.23,-1.02,2.4375,7.0625,88.5,0,0
10.05.2026,17:18:50,54864,0,-0.5,-2.87,2.23,1.3125,7.5,91.1875,0,0
10.05.2026,17:18:50,54918,0,-5.88,-1.87,2.89,2.5,8.625,89.8125,0,0
10.05.2026,17:18:50,54972,0,5.07,2.91,-9.62,4.6875,9.75,87.6875,0,0
10.05.2026,17:18:50,55026,0,4.2,4.25,-7.77,2.5625,9.9375,87.6875,0,0
10.05.2026,17:18:50,55080,0,-3.89,-6.54,10.97,0.6875,7.4375,90.25,0,0
10.05.2026,17:18:50,55134,0,0.38,2.91,-8.57,4.0625,10.1875,88.5,0,0
10.05.2026,17:18:50,55188,0,1.2,5.23,-9.31,2.875,11.5625,87.125,0,0
10.05.2026,17:18:50,55242,0,0.34,-5.52,8.49,-0.3125,7.9375,90.25,0,0
10.05.2026,17:18:50,55296,0,-1.46,-3.83,7.77,0.875,7.375,90.5625,0,0
10.05.2026,17:18:50,55350,0,1.34,4.05,-8.33,2.75,11.375,86.9375,0,0
10.05.2026,17:18:50,55404,0,0.67,-1.24,1.14,0.9375,9.375,89.5,0,0
10.05.2026,17:18:50,55458,0,3.51,3.92,-0.14,0.125,8.75,91.3125,0,0
10.05.2026,17:18:50,55512,0,-2.18,-0.14,-2.3,0.125,8.8125,91.5625,0,0
10.05.2026,17:18:50,55566,0,0.56,0.33,-0.58,0.4375,8.5,92.5625,0,0
10.05.2026,17:18:50,55620,0,1.38,-0.08,0.09,0.75,8.8125,94,0,0
10.05.2026,17:18:50,55674,0,1.4,0.04,-0.26,1.4375,8.875,99.6875,0,0
10.05.2026,17:18:50,55728,0,0.16,-0.32,-0.42,2.3125,8.75,106.625,0,0
10.05.2026,17:18:50,55782,0,-0.41,-0.05,-0.28,2.5,8.75,108.6875,0,0
10.05.2026,17:18:50,55836,0,-0.68,-0.21,-0.19,2.875,8.625,111.3125,0,0
10.05.2026,17:18:50,55890,0,-0.58,0.06,-0.33,2.9375,8.625,112,0,0
10.05.2026,17:18:50,55944,0,-1.24,-0.82,0,2.8125,8.625,111.5,0,0
10.05.2026,17:18:50,55998,0,-0.27,0.7,-0.15,2,8.75,104.6875,0,0
10.05.2026,17:18:50,56052,0,0.63,1.3,-0.58,1.5625,8.8125,100.8125,0,0
10.05.2026,17:18:50,56106,0,-0.65,0.43,-0.2,0.875,8.75,95,0,0
10.05.2026,17:18:50,56160,0,-0.08,0.61,-0.21,0.375,8.5,90.8125,0,0
10.05.2026,17:18:50,56214,0,-0.05,0.44,-0.37,0.0625,8.3125,88.0625,0,0
10.05.2026,17:18:50,56268,0,0.98,-0.36,-0.2,-0.5625,7.9375,82.75,0,0
10.05.2026,17:18:50,56322,0,2.8,0.42,0.13,-1.0625,7.625,78.4375,0,0
10.05.2026,17:18:50,56376,0,1.54,-1.36,-0.64,-1.1875,7.5625,77.125,0,0
10.05.2026,17:18:50,56430,0,1.93,-0.25,-0.34,-1.375,7.5,75,0,0
10.05.2026,17:18:50,56484,0,0.35,-0.57,-0.36,-1.375,7.5,74.8125,0,0
10.05.2026,17:18:50,56538,0,0.68,-0.43,-0.33,-1.375,7.5,74.9375,0,0
10.05.2026,17:18:50,56592,0,0.91,-0.43,-0.24,-0.5625,8,76.8125,0,0
10.05.2026,17:18:50,56646,0,1.06,-0.29,-0.32,-0.3125,8,78.25,0,0
10.05.2026,17:18:50,56700,0,0.7,0.57,-0.45,0.5,8.25,83,0,0
10.05.2026,17:18:50,56754,0,0.29,-0.27,-0.19,1.4375,8.3125,90.6875,0,0
10.05.2026,17:18:50,56808,0,0.06,-0.07,-0.16,1.8125,8.3125,93.9375,0,0
10.05.2026,17:18:50,56862,0,0.68,0.28,-0.31,2.875,8,100.6875,0,0
10.05.2026,17:18:50,56916,0,0.46,-0.17,-0.31,3.4375,7.9375,106.3125,0,0
10.05.2026,17:18:50,56970,0,0.53,-0.16,-0.48,4.1875,7.4375,110.0625,0,0
10.05.2026,17:18:50,57024,0,-0.83,0.8,-0.61,4.8125,6.875,113.9375,0,0
10.05.2026,17:18:50,57078,0,-1.9,0.94,-0.53,4.875,6.9375,115.375,0,0
10.05.2026,17:18:50,57132,0,-1.23,-0.18,-0.31,4.5,7.375,115.375,0,0
10.05.2026,17:18:50,57186,0,-0.77,0.53,-0.31,4.0625,7.5625,111.4375,0,0
10.05.2026,17:18:50,57240,0,-0.59,-0.2,-0.29,3.5,7.8125,107.875,0,0
10.05.2026,17:18:50,57294,0,0.83,1.17,-0.47,2.375,8.1875,100.0625,0,0
10.05.2026,17:18:50,57348,0,0.44,0.24,-0.29,1.4375,8.3125,93,0,0
10.05.2026,17:18:50,57402,0,0.25,0.38,-0.29,1.25,8.3125,91,0,0
10.05.2026,17:18:50,57456,0,0.81,0.35,-0.26,0.8125,8.3125,87.6875,0,0
10.05.2026,17:18:50,57510,0,0.55,-0.67,-0.34,0.5625,8.3125,85.375,0,0
10.05.2026,17:18:50,57564,0,1.49,-0.67,-0.46,0.5,8.3125,84.625,0,0
10.05.2026,17:18:50,57618,0,0.4,-0.21,-0.32,0.5625,8.25,84.75,0,0
10.05.2026,17:18:50,57672,0,0.52,-0.06,-0.31,0.625,8.25,85.0625,0,0
10.05.2026,17:18:50,57726,0,-0.23,-0.25,-0.33,0.6875,8.5625,86.3125,0,0
10.05.2026,17:18:50,57780,0,0.1,-0.2,-0.23,0.6875,8.6875,86.6875,0,0
10.05.2026,17:18:50,57834,0,0.09,-0.18,-0.24,0.75,8.6875,86.6875,0,0
10.05.2026,17:18:50,57888,0,0.11,-0.19,-0.31,0.8125,8.75,86.6875,0,0
10.05.2026,17:18:50,57942,0,0.09,-0.14,-0.29,0.875,8.8125,86.6875,0,0
10.05.2026,17:18:50,57996,0,0.1,-0.13,-0.32,0.875,8.8125,86.6875,0,0
10.05.2026,17:18:50,58050,0,0.09,-0.16,-0.28,0.9375,8.875,87.125,0,0
10.05.2026,17:18:50,58104,0,0.06,-0.12,-0.27,1,8.9375,87.9375,0,0
10.05.2026,17:18:50,58158,0,0.08,-0.14,-0.26,1,8.9375,87.9375,0,0
10.05.2026,17:18:50,58212,0,0.06,-0.13,-0.25,1,8.9375,88.6875,0,0
10.05.2026,17:18:50,58266,0,0.09,-0.13,-0.27,1.0625,9,88.6875,0,0
10.05.2026,17:18:50,58320,0,0.07,-0.11,-0.25,1.0625,9,89.1875,0,0
10.05.2026,17:18:50,58374,0,0.07,-0.12,-0.36,1.125,9.0625,89.3125,0,0
10.05.2026,17:18:50,58428,0,0.05,-0.09,-0.25,1.125,9.0625,89.6875,0,0
10.05.2026,17:18:50,58482,0,0.03,-0.09,-0.28,1.1875,9.0625,90.1875,0,0
10.05.2026,17:18:50,58536,0,0.05,-0.09,-0.32,1.1875,9.125,90.4375,0,0
10.05.2026,17:18:50,58590,0,0.03,-0.11,-0.3,1.1875,9.125,90.6875,0,0
10.05.2026,17:18:50,58644,0,0.03,-0.09,-0.31,1.1875,9.125,91.125,0,0
10.05.2026,17:18:50,58698,0,0.04,-0.11,-0.24,1.25,9.125,91.125,0,0
10.05.2026,17:18:50,58752,0,0.01,-0.07,-0.31,1.25,9.125,91.375,0,0
10.05.2026,17:18:50,58806,0,0.03,-0.05,-0.29,1.25,9.1875,91.375,0,0
10.05.2026,17:18:50,58860,0,0.02,-0.1,-0.27,1.25,9.1875,91.375,0,0
10.05.2026,17:18:50,58914,0,0.02,-0.07,-0.29,1.25,9.1875,91.5625,0,0
10.05.2026,17:18:50,58968,0,0.04,-0.07,-0.3,1.25,9.1875,91.5625,0,0
10.05.2026,17:18:50,59022,0,0.02,-0.11,-0.27,1.25,9.1875,91.5625,0,0
10.05.2026,17:18:50,59076,0,0.04,-0.08,-0.28,1.25,9.1875,91.75,0,0
10.05.2026,17:18:50,59130,0,0.04,-0.09,-0.28,1.25,9.1875,91.75,0,0
10.05.2026,17:18:50,59184,0,0.05,-0.08,-0.25,1.25,9.1875,91.8125,0,0
10.05.2026,17:18:50,59238,0,0.02,-0.08,-0.28,1.25,9.1875,91.8125,0,0
10.05.2026,17:18:50,59292,0,0.04,-0.07,-0.28,1.25,9.1875,91.8125,0,0
10.05.2026,17:18:50,59346,0,0.02,-0.08,-0.28,1.25,9.1875,92,0,0
10.05.2026,17:18:50,59400,0,0.01,-0.11,-0.27,1.25,9.1875,92,0,0
10.05.2026,17:18:50,59454,0,0.03,-0.06,-0.28,1.25,9.1875,91.9375,0,0
10.05.2026,17:18:50,59508,0,0.03,-0.08,-0.26,1.25,9.125,92.0625,0,0
10.05.2026,17:18:50,59562,0,0.03,-0.06,-0.28,1.25,9.125,92.0625,0,0
10.05.2026,17:18:50,59616,0,0.03,-0.06,-0.26,1.25,9.125,92.3125,0,0
10.05.2026,17:18:50,59670,1.793662e-43,0.06,-0.1,-0.26,1.25,9.125,92.3125,0,0
10.05.2026,17:18:50,59724,0,0.04,-0.1,-0.29,1.25,9.125,92.5,0,0
10.05.2026,17:18:50,59778,0,0.05,-0.09,-0.27,1.25,9.125,92.5,0,0
10.05.2026,17:18:50,59832,0,0.05,-0.09,-0.29,1.25,9.125,92.5,0,0
10.05.2026,17:18:50,59886,0,0.04,-0.1,-0.29,1.25,9.125,92.5,0,0
10.05.2026,17:18:50,59940,0,0.05,-0.09,-0.26,1.25,9.125,92.5,0,0
10.05.2026,17:18:50,59994,0,0.05,-0.08,-0.29,1.25,9.125,92.5,0,0
10.05.2026,17:18:50,60048,0,0.03,-0.07,-0.27,1.25,9.125,92.5,0,0
10.05.2026,17:18:50,60102,0,0.03,-0.11,-0.28,1.25,9.125,92.5,0,0
10.05.2026,17:18:50,60156,0,0.05,-0.1,-0.31,1.25,9.125,92.5,0,0
10.05.2026,17:18:50,60210,0,0.03,-0.09,-0.27,1.25,9.125,92.5,0,0
10.05.2026,17:18:50,60264,0,0.07,-0.07,-0.29,1.25,9.125,92.5,0,0
10.05.2026,17:18:50,60318,0,0.05,-0.08,-0.25,1.25,9.125,92.5,0,0
10.05.2026,17:18:50,60372,0,0.03,-0.08,-0.3,1.25,9.125,92.5,0,0
10.05.2026,17:18:50,60426,0,0.04,-0.08,-0.29,1.25,9.125,92.5,0,0
10.05.2026,17:18:50,60480,0,0.05,-0.09,-0.27,1.25,9.125,92.5,0,0
10.05.2026,17:18:50,60534,0,0.05,-0.08,-0.26,1.25,9.125,92.5,0,0
10.05.2026,17:18:50,60588,0,0.03,-0.1,-0.27,1.25,9.125,92.5,0,0
10.05.2026,17:18:50,60642,0,0.02,-0.08,-0.29,1.25,9.125,92.5,0,0
10.05.2026,17:18:50,60696,0,0.03,-0.11,-0.29,1.25,9.125,92.5,0,0
10.05.2026,17:18:50,60750,0,0.05,-0.1,-0.32,1.25,9.125,92.5,0,0
10.05.2026,17:18:50,60804,0,0.06,-0.09,-0.31,1.25,9.125,92.5,0,0
10.05.2026,17:18:50,60858,0,0.03,-0.1,-0.29,1.25,9.125,92.5,0,0
10.05.2026,17:18:50,60912,0,0.04,-0.08,-0.28,1.25,9.125,92.5,0,0
10.05.2026,17:18:50,60966,0,0.05,-0.09,-0.28,1.25,9.125,92.5,0,0
10.05.2026,17:18:50,61020,0,0.05,-0.11,-0.32,1.25,9.125,92.5,0,0
10.05.2026,17:18:50,61074,0,0.04,-0.09,-0.28,1.25,9.125,92.5,0,0
10.05.2026,17:18:50,61128,0,0.04,-0.09,-0.28,1.25,9.125,92.5,0,0
10.05.2026,17:18:50,61182,0,0.04,-0.08,-0.28,1.25,9.125,92.5,0,0
10.05.2026,17:18:50,61236,0,0.05,-0.1,-0.32,1.25,9.125,92.5,0,0
10.05.2026,17:18:50,61290,0,0.05,-0.09,-0.29,1.25,9.125,92.5,0,0
10.05.2026,17:18:50,61344,0,0.03,-0.08,-0.29,1.25,9.125,92.5,0,0
10.05.2026,17:18:50,61398,0,0.06,-0.1,-0.28,1.25,9.125,92.5,0,0
10.05.2026,17:18:50,61452,0,0.06,-0.08,-0.28,1.25,9.125,92.5,0,0
10.05.2026,17:18:50,61506,0,0.04,-0.1,-0.32,1.25,9.125,92.5,0,0
10.05.2026,17:18:50,61560,0,0.03,-0.09,-0.26,1.25,9.125,92.5,0,0
10.05.2026,17:18:50,61614,0,0.02,-0.08,-0.29,1.25,9.125,92.5,0,0
10.05.2026,17:18:50,61668,0,0.03,-0.09,-0.27,1.25,9.125,92.5,0,0
10.05.2026,17:18:50,61722,0,0.05,-0.06,-0.26,1.25,9.125,92.5,0,0
10.05.2026,17:18:50,61776,0,0.05,-0.08,-0.3,1.25,9.125,92.5,0,0
10.05.2026,17:18:50,61830,0,0.04,-0.11,-0.27,1.25,9.125,92.5,0,0
10.05.2026,17:18:50,61884,0,0.04,-0.07,-0.29,1.25,9.125,92.5,0,0
10.05.2026,17:18:50,61938,0,0.03,-0.08,-0.27,1.25,9.125,92.5,0,0
10.05.2026,17:18:50,61992,0,0.04,-0.07,-0.31,1.25,9.125,92.5,0,0
10.05.2026,17:18:50,62046,0,0.04,-0.07,-0.26,1.25,9.125,92.5,0,0
10.05.2026,17:18:50,62100,0,0.05,-0.07,-0.27,1.25,9.125,92.5,0,0
10.05.2026,17:18:50,62154,0,0.03,-0.08,-0.28,1.25,9.125,92.5,0,0
10.05.2026,17:18:50,62208,0,0.04,-0.09,-0.24,1.25,9.125,92.5,0,0
10.05.2026,17:18:50,62262,0,0.03,-0.1,-0.29,1.25,9.125,92.5,0,0
10.05.2026,17:18:50,62316,0,0.06,-0.08,-0.3,1.25,9.125,92.5,0,0
10.05.2026,17:18:50,62370,0,0.02,-0.07,-0.29,1.25,9.125,92.5,0,0
10.05.2026,17:18:50,62424,0,0.05,-0.09,-0.26,1.25,9.125,92.5,0,0
10.05.2026,17:18:50,62478,0,0.03,-0.11,-0.26,1.25,9.125,92.5,0,0
10.05.2026,17:18:50,62532,0,0.07,-0.09,-0.26,1.25,9.125,92.5,0,0
10.05.2026,17:18:50,62586,0,0.06,-0.09,-0.3,1.25,9.125,92.5,0,0
10.05.2026,17:18:50,62640,0,0.03,-0.09,-0.29,1.25,9.125,92.5,0,0
10.05.2026,17:18:50,62694,0,0.05,-0.1,-0.3,1.25,9.125,92.5,0,0
10.05.2026,17:18:50,62748,0,0.03,-0.11,-0.3,1.25,9.125,92.5,0,0
10.05.2026,17:18:50,62802,0,0.03,-0.07,-0.26,1.25,9.125,92.5,0,0
10.05.2026,17:18:50,62856,0,0.04,-0.08,-0.27,1.25,9.125,92.5,0,0
10.05.2026,17:18:50,62910,0,0.04,-0.11,-0.27,1.25,9.125,92.5,0,0
10.05.2026,17:18:50,62964,0,0.06,-0.08,-0.28,1.25,9.125,92.5,0,0
10.05.2026,17:18:50,63018,0,0.02,-0.08,-0.27,1.25,9.125,92.5,0,0
10.05.2026,17:18:50,63072,0,0.06,-0.09,-0.26,1.25,9.125,92.5,0,0
10.05.2026,17:18:50,63126,0,0.03,-0.1,-0.28,1.25,9.125,92.5,0,0
10.05.2026,17:18:50,63180,0,0.04,-0.11,-0.28,1.25,9.125,92.5,0,0
10.05.2026,17:18:50,63234,0,0.05,-0.08,-0.27,1.25,9.125,92.5,0,0
10.05.2026,17:18:50,63288,0,0.04,-0.08,-0.27,1.25,9.125,92.5,0,0
10.05.2026,17:18:50,63342,0,0.03,-0.06,-0.25,1.25,9.125,92.5,0,0
10.05.2026,17:18:50,63396,0,0.05,-0.09,-0.28,1.25,9.125,92.5,0,0
10.05.2026,17:18:50,63450,0,0.04,-0.06,-0.29,1.25,9.125,92.5,0,0
10.05.2026,17:18:50,63504,0,0.06,-0.09,-0.31,1.25,9.125,92.5,0,0
10.05.2026,17:18:50,63558,0,0.05,-0.08,-0.27,1.25,9.125,92.5,0,0
10.05.2026,17:18:50,63612,0,0.06,-0.11,-0.27,1.25,9.125,92.5,0,0
10.05.2026,17:18:50,63666,0,0.06,-0.08,-0.26,1.25,9.125,92.5,0,0
10.05.2026,17:18:50,63720,0,0.03,-0.09,-0.26,1.25,9.125,92.5,0,0
10.05.2026,17:18:50,63774,0,0.06,-0.09,-0.28,1.25,9.125,92.5,0,0
10.05.2026,17:18:50,63828,0,0.02,-0.1,-0.27,1.25,9.125,92.5,0,0
10.05.2026,17:18:50,63882,0,0.05,-0.09,-0.31,1.25,9.125,92.5,0,0
10.05.2026,17:18:50,63936,0,0.03,-0.08,-0.29,1.25,9.125,92.5,0,0
10.05.2026,17:18:50,63990,0,0.02,-0.09,-0.26,1.25,9.125,92.5,0,0
10.05.2026,17:18:50,64044,0,0.04,-0.09,-0.27,1.25,9.125,92.5,0,0
10.05.2026,17:18:50,64098,0,0.05,-0.08,-0.29,1.25,9.125,92.5,0,0
10.05.2026,17:18:50,64152,0,0.06,-0.08,-0.28,1.25,9.125,92.5,0,0
10.05.2026,17:18:50,64206,0,0.07,-0.09,-0.27,1.25,9.125,92.5,0,0
10.05.2026,17:18:50,64260,0,0.06,-0.09,-0.27,1.25,9.125,92.5,0,0
10.05.2026,17:18:50,64314,0,0.04,-0.08,-0.26,1.25,9.125,92.5,0,0
10.05.2026,17:18:50,64368,0,0.05,-0.07,-0.28,1.25,9.125,92.5,0,0
10.05.2026,17:18:50,64422,0,0.05,-0.07,-0.26,1.25,9.125,92.5,0,0
10.05.2026,17:18:50,64476,0,0.03,-0.09,-0.28,1.25,9.125,92.5,0,0
10.05.2026,17:18:50,64530,0,0.04,-0.09,-0.3,1.25,9.125,92.5,0,0
10.05.2026,17:18:50,64584,0,0.06,-0.09,-0.3,1.25,9.125,92.5,0,0
10.05.2026,17:18:50,64638,0,0.05,-0.08,-0.26,1.25,9.125,92.5,0,0
10.05.2026,17:18:50,64692,0,0.06,-0.09,-0.29,1.25,9.125,92.5,0,0
10.05.2026,17:18:50,64746,0,0.05,-0.08,-0.27,1.25,9.125,92.5,0,0
10.05.2026,17:18:50,64800,0,0.05,-0.08,-0.28,1.25,9.125,92.5,0,0
10.05.2026,17:18:50,64854,0,0.05,-0.09,-0.27,1.25,9.125,92.5,0,0
10.05.2026,17:18:50,64908,0,0.05,-0.1,-0.29,1.3125,9.125,92.5,0,0
10.05.2026,17:18:50,64962,0,0.05,-0.11,-0.29,1.3125,9.125,92.5,0,0
10.05.2026,17:18:50,65016,0,0.03,-0.08,-0.3,1.3125,9.125,92.5,0,0
10.05.2026,17:18:50,65070,0,0.05,-0.09,-0.26,1.3125,9.125,92.5,0,0
10.05.2026,17:18:50,65124,0,0.05,-0.05,-0.26,1.3125,9.125,92.5,0,0
10.05.2026,17:18:50,65178,0,0.03,-0.08,-0.3,1.3125,9.125,92.5,0,0
10.05.2026,17:18:50,65232,0,0.05,-0.1,-0.29,1.3125,9.125,92.5,0,0
10.05.2026,17:18:50,65286,0,0.05,-0.09,-0.28,1.3125,9.125,92.5,0,0
10.05.2026,17:18:50,65340,0,0.03,-0.1,-0.28,1.3125,9.125,92.5,0,0
10.05.2026,17:18:50,65394,0,0.03,-0.07,-0.26,1.3125,9.125,92.5,0,0
10.05.2026,17:18:50,65448,0,0.08,-0.06,-0.27,1.3125,9.125,92.5,0,0
10.05.2026,17:18:50,65502,0,0.04,-0.08,-0.29,1.3125,9.125,92.5,0,0
10.05.2026,17:18:50,65556,0,0.05,-0.08,-0.25,1.3125,9.125,92.5,0,0
10.05.2026,17:18:50,65610,0,0.11,-0.02,-0.28,1.3125,9.125,92.5,0,0
10.05.2026,17:18:50,65664,0,0.02,-0.14,-0.27,1.3125,9.125,92.5,0,0
10.05.2026,17:18:50,65718,0,0.04,0.03,-0.26,1.3125,9.125,92.5,0,0
10.05.2026,17:18:50,65772,0,0.02,0,-0.23,1.375,9.125,92.5,0,0
10.05.2026,17:18:50,65826,0,0.07,-0.23,-0.41,1.4375,9.1875,92.5,0,0
10.05.2026,17:18:50,65880,0,0,-0.04,-0.26,1.4375,9.1875,92.5,0,0
10.05.2026,17:18:50,65934,0,0.08,0.03,-0.32,1.4375,9.1875,92.5,0,0
10.05.2026,17:18:50,65988,0,0,0.02,-0.29,1.4375,9.1875,92.5,0,0
10.05.2026,17:18:50,66042,0,0.06,-0.01,-0.4,1.4375,9.25,92.5,0,0
10.05.2026,17:18:50,66096,0,0,-0.12,-0.26,1.5,9.25,92.5,0,0
10.05.2026,17:18:50,66150,0,-0.01,-0.14,-0.3,1.5,9.25,92.5,0,0
10.05.2026,17:18:50,66204,0,0.08,-0.03,-0.26,1.5625,9.25,92.5,0,0
10.05.2026,17:18:50,66258,0,-0.02,-0.03,-0.28,1.5625,9.25,92.5,0,0
10.05.2026,17:18:50,66312,0,0,-0.03,-0.32,1.5625,9.25,92.5,0,0
10.05.2026,17:18:50,66366,0,-0.01,-0.05,-0.29,1.5625,9.3125,92.5,0,0
10.05.2026,17:18:50,66420,0,0.06,-0.05,-0.3,1.5625,9.3125,92.5,0,0
10.05.2026,17:18:50,66474,0,-0.01,-0.06,-0.29,1.5625,9.3125,92.5,0,0
10.05.2026,17:18:50,66528,0,0.03,-0.07,-0.29,1.5625,9.3125,92.5,0,0
10.05.2026,17:18:50,66582,0,-0.03,-0.06,-0.28,1.5625,9.3125,92.5,0,0
10.05.2026,17:18:50,66636,0,0.01,0.01,-0.29,1.5625,9.3125,92.5,0,0
10.05.2026,17:18:50,66690,0,0,-0.04,-0.28,1.5625,9.3125,92.5,0,0
10.05.2026,17:18:50,66744,0,0.02,-0.02,-0.27,1.5625,9.3125,92.5,0,0
10.05.2026,17:18:50,66798,0,0,-0.03,-0.25,1.5625,9.3125,92.5,0,0
10.05.2026,17:18:50,66852,0,0.02,0.03,-0.28,1.5625,9.3125,92.5,0,0
10.05.2026,17:18:50,66906,0,0.01,0.22,-0.45,1.5625,9.3125,92.5,0,0
10.05.2026,17:18:50,66960,0,-0.09,-0.47,-0.69,1.625,9.3125,92.5,0,0
10.05.2026,17:18:50,67014,0,0.12,-0.13,-0.17,1.625,9.3125,92.5,0,0
10.05.2026,17:18:50,67068,0,-0.09,-0.35,-0.05,1.625,9.3125,92.5,0,0
10.05.2026,17:18:50,67122,0,0.15,0.01,-0.37,1.625,9.3125,92.5,0,0
10.05.2026,17:18:50,67176,0,0.04,-0.14,-0.41,1.625,9.3125,92.5,0,0
10.05.2026,17:18:50,67230,0,0.04,-0.04,-0.3,1.625,9.3125,92.5,0,0
10.05.2026,17:18:50,67284,0,-0.01,-0.04,-0.33,1.6875,9.3125,92.5,0,0
10.05.2026,17:18:50,67338,0,0.04,-0.03,-0.24,1.6875,9.3125,92.5,0,0
10.05.2026,17:18:50,67392,0,-0.02,-0.03,-0.27,1.6875,9.3125,92.5,0,0
10.05.2026,17:18:50,67446,0,0.05,-0.07,-0.26,1.6875,9.3125,92.5,0,0
10.05.2026,17:18:50,67500,0,0,-0.06,-0.25,1.6875,9.3125,92.5,0,0
10.05.2026,17:18:50,67554,0,0.01,-0.04,-0.3,1.6875,9.3125,92.5,0,0
10.05.2026,17:18:50,67608,0,0.01,-0.03,-0.28,1.6875,9.3125,92.5,0,0
10.05.2026,17:18:50,67662,0,0.02,-0.05,-0.32,1.6875,9.3125,92.5,0,0
10.05.2026,17:18:50,67716,0,0,-0.05,-0.26,1.6875,9.3125,92.5,0,0
10.05.2026,17:18:50,67770,0,0.01,-0.05,-0.28,1.6875,9.3125,92.5,0,0
10.05.2026,17:18:50,67824,0,0.04,-0.04,-0.24,1.6875,9.3125,92.5,0,0
10.05.2026,17:18:50,67878,0,0,-0.04,-0.23,1.6875,9.3125,92.5,0,0
10.05.2026,17:18:50,67932,0,0,-0.03,-0.26,1.6875,9.3125,92.5,0,0
10.05.2026,17:18:50,67986,0,0.02,-0.02,-0.3,1.6875,9.3125,92.5,0,0
10.05.2026,17:18:50,68040,0,0.04,-0.04,-0.3,1.6875,9.3125,92.5,0,0
10.05.2026,17:18:50,68094,0,0.04,-0.06,-0.26,1.6875,9.3125,92.5,0,0
10.05.2026,17:18:50,68148,0,0,-0.04,-0.28,1.6875,9.3125,92.5,0,0
10.05.2026,17:18:50,68202,0,0,-0.05,-0.27,1.6875,9.3125,92.5,0,0
10.05.2026,17:18:50,68256,0,0,-0.04,-0.28,1.6875,9.3125,92.5,0,0
10.05.2026,17:18:50,68310,0,0,-0.04,-0.29,1.6875,9.3125,92.5,0,0
10.05.2026,17:18:50,68364,0,0,-0.03,-0.29,1.6875,9.3125,92.5,0,0
10.05.2026,17:18:50,68418,0,0.01,-0.05,-0.28,1.6875,9.3125,92.5,0,0
10.05.2026,17:18:50,68472,0,0,-0.04,-0.18,1.6875,9.3125,92.5,0,0
10.05.2026,17:18:50,68526,0,0.02,-0.02,-0.28,1.6875,9.3125,92.5,0,0
10.05.2026,17:18:50,68580,0,0.03,-0.04,-0.3,1.6875,9.3125,92.5,0,0
10.05.2026,17:18:50,68634,0,0,-0.03,-0.28,1.6875,9.3125,92.5,0,0
10.05.2026,17:18:50,68688,0,0,-0.03,-0.27,1.6875,9.3125,92.5,0,0
10.05.2026,17:18:50,68742,0,0.02,-0.04,-0.23,1.6875,9.3125,92.5,0,0
10.05.2026,17:18:50,68796,0,0,-0.01,-0.26,1.6875,9.3125,92.5,0,0
10.05.2026,17:18:50,68850,0,0.03,-0.03,-0.29,1.6875,9.3125,92.5,0,0
10.05.2026,17:18:50,68904,0,0.01,-0.01,-0.32,1.6875,9.3125,92.5,0,0
10.05.2026,17:18:50,68958,0,0.03,-0.05,-0.27,1.6875,9.3125,92.5,0,0
10.05.2026,17:18:50,69012,0,0.04,-0.04,-0.3,1.6875,9.3125,92.5,0,0
10.05.2026,17:18:50,69066,0,0,-0.01,-0.29,1.6875,9.3125,92.5,0,0
10.05.2026,17:18:50,69120,0,0,-0.03,-0.3,1.6875,9.3125,92.5,0,0
10.05.2026,17:18:50,69174,0,0.04,-0.05,-0.3,1.6875,9.3125,92.5,0,0
10.05.2026,17:18:50,69228,0,0,-0.05,-0.27,1.6875,9.3125,92.5,0,0
10.05.2026,17:18:50,69282,0,0,-0.03,-0.27,1.6875,9.3125,92.5,0,0
10.05.2026,17:18:50,69336,0,0.02,-0.03,-0.26,1.6875,9.3125,92.5,0,0
10.05.2026,17:18:50,69390,0,0.01,-0.03,-0.25,1.6875,9.3125,92.5,0,0
10.05.2026,17:18:50,69444,0,0.02,-0.02,-0.28,1.6875,9.3125,92.5,0,0
10.05.2026,17:18:50,69498,0,0.02,-0.04,-0.28,1.6875,9.3125,92.5,0,0
10.05.2026,17:18:50,69552,0,-0.01,-0.01,-0.24,1.6875,9.3125,92.5,0,0
10.05.2026,17:18:50,69606,0,0,-0.05,-0.25,1.6875,9.3125,92.5,0,0
10.05.2026,17:18:50,69660,0,0,-0.05,-0.3,1.6875,9.3125,92.5,0,0
10.05.2026,17:18:50,69714,0,0,-0.03,-0.28,1.6875,9.3125,92.5,0,0
10.05.2026,17:18:50,69768,0,0.02,-0.04,-0.3,1.6875,9.3125,92.5,0,0
10.05.2026,17:18:50,69822,0,0.01,-0.01,-0.24,1.6875,9.3125,92.5,0,0
10.05.2026,17:18:50,69876,0,0.02,-0.04,-0.29,1.6875,9.3125,92.5,0,0
10.05.2026,17:18:50,69930,0,0,-0.03,-0.27,1.6875,9.3125,92.5,0,0
10.05.2026,17:18:50,69984,0,0.01,-0.02,-0.28,1.6875,9.3125,92.5,0,0
10.05.2026,17:18:50,70038,0,0.01,-0.04,-0.24,1.6875,9.3125,92.5,0,0
10.05.2026,17:18:50,70092,0,0.01,-0.03,-0.25,1.6875,9.3125,92.5,0,0
10.05.2026,17:18:50,70146,0,0,-0.02,-0.26,1.6875,9.3125,92.5,0,0
10.05.2026,17:18:50,70200,0,0.05,-0.02,-0.26,1.6875,9.3125,92.5,0,0
10.05.2026,17:18:50,70254,0,0.02,-0.03,-0.25,1.6875,9.3125,92.5,0,0
10.05.2026,17:18:50,70308,0,0,-0.04,-0.25,1.6875,9.3125,92.5,0,0
10.05.2026,17:18:50,70362,0,0.02,-0.04,-0.28,1.6875,9.3125,92.5,0,0
10.05.2026,17:18:50,70416,0,0,-0.03,-0.28,1.6875,9.3125,92.5,0,0
10.05.2026,17:18:50,70470,0,0.01,-0.03,-0.29,1.6875,9.3125,92.5,0,0
10.05.2026,17:18:50,70524,0,0.02,-0.04,-0.28,1.6875,9.3125,92.5,0,0
10.05.2026,17:18:50,70578,0,0.01,-0.05,-0.28,1.6875,9.3125,92.5,0,0
10.05.2026,17:18:50,70632,0,0.01,-0.02,-0.29,1.6875,9.3125,92.5,0,0
10.05.2026,17:18:50,70686,0,0.03,-0.02,-0.28,1.6875,9.3125,92.5,0,0
10.05.2026,17:18:50,70740,0,0.02,-0.02,-0.24,1.6875,9.3125,92.5,0,0
10.05.2026,17:18:50,70794,0,0.02,-0.02,-0.28,1.6875,9.3125,92.5,0,0
10.05.2026,17:18:50,70848,0,-0.01,-0.06,-0.25,1.6875,9.3125,92.5,0,0
10.05.2026,17:18:50,70902,0,0,-0.05,-0.23,1.6875,9.3125,92.5,0,0
10.05.2026,17:18:50,70956,0,0.03,-0.03,-0.25,1.6875,9.3125,92.5,0,0
10.05.2026,17:18:50,71010,0,-0.01,-0.04,-0.26,1.6875,9.3125,92.5,0,0
10.05.2026,17:18:50,71064,0,0.02,-0.04,-0.28,1.6875,9.3125,92.5,0,0
10.05.2026,17:18:50,71118,0,0.02,-0.05,-0.27,1.6875,9.3125,92.5,0,0
10.05.2026,17:18:50,71172,0,0.01,-0.03,-0.32,1.6875,9.3125,92.5,0,0
10.05.2026,17:18:50,71226,0,0,-0.04,-0.26,1.6875,9.3125,92.5,0,0
10.05.2026,17:18:50,71280,0,0,-0.03,-0.15,1.6875,9.3125,92.5,0,0
10.05.2026,17:18:50,71334,0,0.04,-0.01,-0.28,1.6875,9.3125,92.5,0,0
10.05.2026,17:18:50,71388,0,0.01,-0.03,-0.29,1.6875,9.3125,92.5,0,0
10.05.2026,17:18:50,71442,0,0.03,-0.04,-0.3,1.6875,9.3125,92.5,0,0
10.05.2026,17:18:50,71496,0,-0.01,0,-0.3,1.6875,9.3125,92.5,0,0
10.05.2026,17:18:50,71550,0,0.01,-0.02,-0.27,1.6875,9.3125,92.5,0,0
10.05.2026,17:18:50,71604,0,0.03,-0.05,-0.25,1.6875,9.3125,92.5,0,0
10.05.2026,17:18:50,71658,0,-0.01,-0.05,-0.26,1.6875,9.3125,92.5,0,0
10.05.2026,17:18:50,71712,0,0.02,-0.03,-0.28,1.6875,9.3125,92.5,0,0
10.05.2026,17:18:50,71766,0,0.02,-0.04,-0.28,1.6875,9.3125,92.5,0,0
10.05.2026,17:18:50,71820,0,0.02,-0.03,-0.25,1.6875,9.3125,92.5,0,0
10.05.2026,17:18:50,71874,0,0.01,-0.03,-0.27,1.75,9.3125,92.5,0,0
10.05.2026,17:18:50,71928,0,0,-0.03,-0.29,1.75,9.3125,92.5,0,0
10.05.2026,17:18:50,71982,0,0.02,-0.02,-0.28,1.75,9.3125,92.5,0,0
10.05.2026,17:18:50,72036,0,0,-0.04,-0.3,1.75,9.3125,92.5,0,0
10.05.2026,17:18:50,72090,0,0.04,-0.02,-0.29,1.75,9.3125,92.5,0,0
10.05.2026,17:18:50,72144,0,0.01,-0.05,-0.26,1.75,9.3125,92.5,0,0
10.05.2026,17:18:50,72198,0,0.02,-0.03,-0.28,1.75,9.3125,92.5,0,0
10.05.2026,17:18:50,72252,0,0.04,-0.04,-0.28,1.75,9.3125,92.5,0,0
10.05.2026,17:18:50,72306,0,0.01,-0.03,-0.28,1.75,9.3125,92.5,0,0
10.05.2026,17:18:50,72360,0,0.01,-0.02,-0.24,1.75,9.3125,92.5,0,0
10.05.2026,17:18:50,72414,0,0.03,-0.02,-0.26,1.75,9.3125,92.5,0,0
10.05.2026,17:18:50,72468,0,0.02,-0.03,-0.27,1.75,9.3125,92.5,0,0
10.05.2026,17:18:50,72522,0,0.03,-0.02,-0.3,1.75,9.3125,92.5,0,0
10.05.2026,17:18:50,72576,0,0,-0.03,-0.27,1.75,9.3125,92.5,0,0
10.05.2026,17:18:50,72630,0,0.04,-0.03,-0.26,1.75,9.3125,92.5,0,0
10.05.2026,17:18:50,72684,0,0.04,-0.02,-0.29,1.75,9.3125,92.5,0,0
10.05.2026,17:18:50,72738,0,0.01,-0.03,-0.28,1.75,9.25,92.5,0,0
10.05.2026,17:18:50,72792,0,0.03,-0.03,-0.31,1.75,9.25,92.5,0,0
10.05.2026,17:18:50,72846,0,0.01,-0.01,-0.3,1.75,9.25,92.5,0,0
10.05.2026,17:18:50,72900,0,0.01,-0.02,-0.28,1.75,9.25,92.5,0,0
10.05.2026,17:18:50,72954,0,0.04,0,-0.3,1.6875,9.25,92.5,0,0
10.05.2026,17:18:50,73008,0,0,-0.08,-0.29,1.6875,9.25,92.5,0,0
10.05.2026,17:18:50,73062,0,0.01,0,-0.31,1.6875,9.25,92.5,0,0
10.05.2026,17:18:50,73116,0,0.02,-0.05,-0.31,1.6875,9.25,92.5,0,0
10.05.2026,17:18:50,73170,0,0,-0.05,-0.29,1.6875,9.25,92.5,0,0
10.05.2026,17:18:50,73224,0,0.05,-0.04,-0.3,1.6875,9.25,92.5,0,0
10.05.2026,17:18:50,73278,0,0.01,-0.02,-0.3,1.6875,9.25,92.5,0,0
10.05.2026,17:18:50,73332,0,0,-0.03,-0.29,1.6875,9.25,92.5,0,0
10.05.2026,17:18:50,73386,0,0.03,-0.04,-0.27,1.6875,9.25,92.5,0,0
10.05.2026,17:18:50,73440,0,0.03,-0.03,-0.27,1.6875,9.25,92.5,0,0
10.05.2026,17:18:50,73494,0,0.02,-0.04,-0.27,1.6875,9.25,92.5,0,0
10.05.2026,17:18:50,73548,0,0,-0.03,-0.31,1.6875,9.25,92.5,0,0
10.05.2026,17:18:50,73602,0,0,-0.02,-0.29,1.6875,9.25,92.5,0,0
10.05.2026,17:18:50,73656,0,0,-0.03,-0.27,1.6875,9.25,92.5,0,0
10.05.2026,17:18:50,73710,0,0,-0.04,-0.26,1.6875,9.25,92.5,0,0
10.05.2026,17:18:50,73764,0,0.01,-0.03,-0.27,1.75,9.25,92.5,0,0
10.05.2026,17:18:50,73818,0,0.03,-0.04,-0.29,1.75,9.25,92.5,0,0
10.05.2026,17:18:50,73872,0,0.02,-0.02,-0.28,1.75,9.25,92.5,0,0
10.05.2026,17:18:50,73926,0,0.03,-0.02,-0.28,1.75,9.25,92.5,0,0
10.05.2026,17:18:50,73980,0,0.01,-0.02,-0.24,1.75,9.25,92.5,0,0
10.05.2026,17:18:50,74034,0,0.02,-0.02,-0.31,1.75,9.25,92.5,0,0
10.05.2026,17:18:50,74088,0,0.02,-0.02,-0.27,1.75,9.25,92.5,0,0
10.05.2026,17:18:50,74142,0,0.03,-0.04,-0.27,1.75,9.25,92.5,0,0
10.05.2026,17:18:50,74196,0,0.02,-0.03,-0.28,1.75,9.25,92.5,0,0
10.05.2026,17:18:50,74250,0,0.02,-0.05,-0.24,1.75,9.25,92.5,0,0
10.05.2026,17:18:50,74304,0,0.03,-0.03,-0.32,1.75,9.25,92.5,0,0
10.05.2026,17:18:50,74358,0,0.02,-0.03,-0.27,1.75,9.25,92.5,0,0
10.05.2026,17:18:50,74412,0,0.02,-0.03,-0.29,1.75,9.25,92.5,0,0
10.05.2026,17:18:50,74466,0,0.02,-0.04,-0.3,1.75,9.25,92.5,0,0
10.05.2026,17:18:50,74520,0,0.01,-0.03,-0.26,1.75,9.25,92.5,0,0
10.05.2026,17:18:50,74574,0,0.02,-0.03,-0.28,1.75,9.25,92.5,0,0
10.05.2026,17:18:50,74628,0,0.03,-0.02,-0.27,1.75,9.25,92.5,0,0
10.05.2026,17:18:50,74682,0,0.01,-0.01,-0.3,1.75,9.25,92.5,0,0
10.05.2026,17:18:50,74736,0,0.05,-0.03,-0.28,1.75,9.25,92.5,0,0
10.05.2026,17:18:50,74790,0,0.04,-0.01,-0.3,1.75,9.25,92.5,0,0
10.05.2026,17:18:50,74844,0,0.03,-0.03,-0.29,1.75,9.25,92.5,0,0
10.05.2026,17:18:50,74898,0,0.02,-0.05,-0.29,1.75,9.25,92.5,0,0
10.05.2026,17:18:50,74952,0,0.02,-0.04,-0.27,1.75,9.25,92.5,0,0
10.05.2026,17:18:50,75006,0,0.02,-0.03,-0.28,1.75,9.25,92.5,0,0
10.05.2026,17:18:50,75060,0,0.02,-0.03,-0.27,1.75,9.25,92.5,0,0
10.05.2026,17:18:50,75114,0,0.02,-0.02,-0.29,1.75,9.25,92.5,0,0
10.05.2026,17:18:50,75168,0,0.02,-0.01,-0.28,1.75,9.25,92.5,0,0
10.05.2026,17:18:50,75222,0,0.02,-0.02,-0.28,1.6875,9.25,92.5,0,0
10.05.2026,17:18:50,75276,0,0,-0.04,-0.29,1.6875,9.25,92.5,0,0
10.05.2026,17:18:50,75330,0,0,-0.05,-0.28,1.75,9.25,92.5,0,0
10.05.2026,17:18:50,75384,0,0.03,-0.03,-0.28,1.75,9.25,92.5,0,0
10.05.2026,17:18:50,75438,0,0.02,-0.03,-0.29,1.75,9.25,92.5,0,0
10.05.2026,17:18:50,75492,0,0.02,-0.01,-0.28,1.75,9.25,92.5,0,0
10.05.2026,17:18:50,75546,0,0.03,-0.03,-0.28,1.75,9.25,92.5,0,0
10.05.2026,17:18:50,75600,0,0.02,-0.02,-0.26,1.75,9.25,92.5,0,0
10.05.2026,17:18:50,75654,0,0,-0.02,-0.31,1.75,9.25,92.5,0,0
10.05.2026,17:18:50,75708,0,0.03,-0.02,-0.27,1.75,9.25,92.5,0,0
10.05.2026,17:18:50,75762,0,0.02,-0.03,-0.26,1.75,9.3125,92.5,0,0
10.05.2026,17:18:50,75816,0,0.01,-0.02,-0.28,1.75,9.3125,92.5,0,0
10.05.2026,17:18:50,75870,0,0.02,-0.03,-0.25,1.75,9.3125,92.5,0,0
10.05.2026,17:18:50,75924,0,0,-0.02,-0.26,1.75,9.3125,92.5,0,0
10.05.2026,17:18:50,75978,0,0.02,-0.02,-0.27,1.75,9.3125,92.5,0,0
10.05.2026,17:18:50,76032,0,0.03,-0.02,-0.26,1.75,9.3125,92.5,0,0
10.05.2026,17:18:50,76086,0,0.01,-0.03,-0.26,1.75,9.3125,92.5,0,0
10.05.2026,17:18:50,76140,0,0,-0.02,-0.32,1.75,9.3125,92.5,0,0
10.05.2026,17:18:50,76194,0,0.06,-0.09,-0.34,1.75,9.3125,92.5,0,0
10.05.2026,17:18:50,76248,0,0.04,0.02,-0.35,1.75,9.3125,92.5,0,0
10.05.2026,17:18:50,76302,0,0.01,-0.07,-0.26,1.75,9.3125,92.5,0,0
10.05.2026,17:18:50,76356,0,0.02,-0.02,-0.27,1.75,9.3125,92.5,0,0
10.05.2026,17:18:50,76410,0,0.03,-0.04,-0.3,1.75,9.3125,92.5,0,0
10.05.2026,17:18:50,76464,0,0.02,-0.03,-0.27,1.75,9.3125,92.5,0,0
10.05.2026,17:18:50,76518,0,0.03,0,-0.28,1.75,9.3125,92.5,0,0